[
  { "level": "city", "code": "3401", "name": "合肥市", "parentCode": "34", "lng": 117.227, "lat": 31.821 },
  { "level": "city", "code": "3402", "name": "芜湖市", "parentCode": "34", "lng": 118.376, "lat": 31.326 },
  { "level": "city", "code": "3403", "name": "蚌埠市", "parentCode": "34", "lng": 117.389, "lat": 32.916 },
  { "level": "city", "code": "3404", "name": "淮南市", "parentCode": "34", "lng": 117.018, "lat": 32.647 },
  { "level": "city", "code": "3405", "name": "马鞍山市", "parentCode": "34", "lng": 118.508, "lat": 31.689 },
  { "level": "city", "code": "3406", "name": "淮北市", "parentCode": "34", "lng": 116.798, "lat": 33.972 },
  { "level": "city", "code": "3407", "name": "铜陵市", "parentCode": "34", "lng": 117.812, "lat": 30.945 },
  { "level": "city", "code": "3408", "name": "安庆市", "parentCode": "34", "lng": 117.064, "lat": 30.543 },
  { "level": "city", "code": "3410", "name": "黄山市", "parentCode": "34", "lng": 118.337, "lat": 29.720 },
  { "level": "city", "code": "3411", "name": "滁州市", "parentCode": "34", "lng": 118.316, "lat": 32.301 },
  { "level": "city", "code": "3412", "name": "阜阳市", "parentCode": "34", "lng": 115.820, "lat": 32.892 },
  { "level": "city", "code": "3413", "name": "宿州市", "parentCode": "34", "lng": 116.964, "lat": 33.646 },
  { "level": "city", "code": "3415", "name": "六安市", "parentCode": "34", "lng": 116.508, "lat": 31.753 },
  { "level": "city", "code": "3416", "name": "亳州市", "parentCode": "34", "lng": 115.784, "lat": 33.846 },
  { "level": "city", "code": "3417", "name": "池州市", "parentCode": "34", "lng": 117.491, "lat": 30.665 },
  { "level": "city", "code": "3418", "name": "宣城市", "parentCode": "34", "lng": 118.758, "lat": 30.946 },

  { "level": "district", "code": "340102", "name": "瑶海区", "parentCode": "3401", "lng": 117.315, "lat": 31.859 },
  { "level": "district", "code": "340103", "name": "庐阳区", "parentCode": "3401", "lng": 117.265, "lat": 31.879 },
  { "level": "district", "code": "340104", "name": "蜀山区", "parentCode": "3401", "lng": 117.261, "lat": 31.851 },
  { "level": "district", "code": "340111", "name": "包河区", "parentCode": "3401", "lng": 117.310, "lat": 31.796 },
  { "level": "district", "code": "340121", "name": "长丰县", "parentCode": "3401", "lng": 117.165, "lat": 32.479 },
  { "level": "district", "code": "340122", "name": "肥东县", "parentCode": "3401", "lng": 117.572, "lat": 31.820 },
  { "level": "district", "code": "340123", "name": "肥西县", "parentCode": "3401", "lng": 117.166, "lat": 31.731 },
  { "level": "district", "code": "340124", "name": "庐江县", "parentCode": "3401", "lng": 117.287, "lat": 31.256 },
  { "level": "district", "code": "340181", "name": "巢湖市", "parentCode": "3401", "lng": 117.869, "lat": 31.600 },

  { "level": "district", "code": "340202", "name": "镜湖区", "parentCode": "3402", "lng": 118.407, "lat": 31.330 },
  { "level": "district", "code": "340207", "name": "鸠江区", "parentCode": "3402", "lng": 118.392, "lat": 31.362 },
  { "level": "district", "code": "340209", "name": "湾沚区", "parentCode": "3402", "lng": 118.576, "lat": 31.131 },
  { "level": "district", "code": "340210", "name": "繁昌区", "parentCode": "3402", "lng": 118.199, "lat": 31.088 },
  { "level": "district", "code": "340223", "name": "无为市", "parentCode": "3402", "lng": 117.902, "lat": 31.303 },
  { "level": "district", "code": "340225", "name": "南陵县", "parentCode": "3402", "lng": 118.335, "lat": 30.916 },

  { "level": "district", "code": "340302", "name": "龙子湖区", "parentCode": "3403", "lng": 117.392, "lat": 32.918 },
  { "level": "district", "code": "340303", "name": "蚌山区", "parentCode": "3403", "lng": 117.386, "lat": 32.939 },
  { "level": "district", "code": "340304", "name": "禹会区", "parentCode": "3403", "lng": 117.355, "lat": 32.903 },
  { "level": "district", "code": "340311", "name": "淮上区", "parentCode": "3403", "lng": 117.391, "lat": 32.967 },
  { "level": "district", "code": "340321", "name": "怀远县", "parentCode": "3403", "lng": 116.774, "lat": 32.953 },
  { "level": "district", "code": "340322", "name": "五河县", "parentCode": "3403", "lng": 117.883, "lat": 33.147 },
  { "level": "district", "code": "340323", "name": "固镇县", "parentCode": "3403", "lng": 117.341, "lat": 33.310 },

  { "level": "district", "code": "340402", "name": "大通区", "parentCode": "3404", "lng": 117.053, "lat": 32.631 },
  { "level": "district", "code": "340403", "name": "田家庵区", "parentCode": "3404", "lng": 117.000, "lat": 32.647 },
  { "level": "district", "code": "340404", "name": "谢家集区", "parentCode": "3404", "lng": 116.882, "lat": 32.608 },
  { "level": "district", "code": "340405", "name": "八公山区", "parentCode": "3404", "lng": 116.833, "lat": 32.628 },
  { "level": "district", "code": "340406", "name": "潘集区", "parentCode": "3404", "lng": 116.855, "lat": 32.777 },
  { "level": "district", "code": "340421", "name": "凤台县", "parentCode": "3404", "lng": 116.612, "lat": 32.709 },
  { "level": "district", "code": "340422", "name": "寿县", "parentCode": "3404", "lng": 116.784, "lat": 32.574 },

  { "level": "district", "code": "340503", "name": "花山区", "parentCode": "3405", "lng": 118.508, "lat": 31.701 },
  { "level": "district", "code": "340504", "name": "雨山区", "parentCode": "3405", "lng": 118.499, "lat": 31.682 },
  { "level": "district", "code": "340506", "name": "博望区", "parentCode": "3405", "lng": 118.847, "lat": 31.654 },
  { "level": "district", "code": "340521", "name": "当涂县", "parentCode": "3405", "lng": 118.498, "lat": 31.558 },
  { "level": "district", "code": "340522", "name": "含山县", "parentCode": "3405", "lng": 118.105, "lat": 31.728 },
  { "level": "district", "code": "340523", "name": "和县", "parentCode": "3405", "lng": 118.354, "lat": 31.710 },

  { "level": "district", "code": "340602", "name": "杜集区", "parentCode": "3406", "lng": 116.834, "lat": 33.963 },
  { "level": "district", "code": "340603", "name": "相山区", "parentCode": "3406", "lng": 116.797, "lat": 33.961 },
  { "level": "district", "code": "340604", "name": "烈山区", "parentCode": "3406", "lng": 116.804, "lat": 33.895 },
  { "level": "district", "code": "340621", "name": "濉溪县", "parentCode": "3406", "lng": 116.762, "lat": 33.931 },

  { "level": "district", "code": "340705", "name": "铜官区", "parentCode": "3407", "lng": 117.811, "lat": 30.935 },
  { "level": "district", "code": "340706", "name": "义安区", "parentCode": "3407", "lng": 117.805, "lat": 30.953 },
  { "level": "district", "code": "340711", "name": "郊区", "parentCode": "3407", "lng": 117.789, "lat": 30.917 },
  { "level": "district", "code": "340722", "name": "枞阳县", "parentCode": "3407", "lng": 117.218, "lat": 30.696 },

  { "level": "district", "code": "340802", "name": "迎江区", "parentCode": "3408", "lng": 117.135, "lat": 30.508 },
  { "level": "district", "code": "340803", "name": "大观区", "parentCode": "3408", "lng": 117.026, "lat": 30.512 },
  { "level": "district", "code": "340811", "name": "宜秀区", "parentCode": "3408", "lng": 117.098, "lat": 30.552 },
  { "level": "district", "code": "340822", "name": "怀宁县", "parentCode": "3408", "lng": 116.829, "lat": 30.734 },
  { "level": "district", "code": "340825", "name": "太湖县", "parentCode": "3408", "lng": 116.308, "lat": 30.454 },
  { "level": "district", "code": "340826", "name": "宿松县", "parentCode": "3408", "lng": 116.129, "lat": 30.153 },
  { "level": "district", "code": "340827", "name": "望江县", "parentCode": "3408", "lng": 116.688, "lat": 30.124 },
  { "level": "district", "code": "340828", "name": "岳西县", "parentCode": "3408", "lng": 116.360, "lat": 30.840 },
  { "level": "district", "code": "340881", "name": "桐城市", "parentCode": "3408", "lng": 116.951, "lat": 31.035 },
  { "level": "district", "code": "340882", "name": "潜山市", "parentCode": "3408", "lng": 116.581, "lat": 30.631 },

  { "level": "district", "code": "341002", "name": "屯溪区", "parentCode": "3410", "lng": 118.316, "lat": 29.720 },
  { "level": "district", "code": "341003", "name": "黄山区", "parentCode": "3410", "lng": 118.132, "lat": 30.272 },
  { "level": "district", "code": "341004", "name": "徽州区", "parentCode": "3410", "lng": 118.340, "lat": 29.827 },
  { "level": "district", "code": "341021", "name": "歙县", "parentCode": "3410", "lng": 118.414, "lat": 29.862 },
  { "level": "district", "code": "341022", "name": "休宁县", "parentCode": "3410", "lng": 118.196, "lat": 29.789 },
  { "level": "district", "code": "341023", "name": "黟县", "parentCode": "3410", "lng": 117.941, "lat": 29.925 },
  { "level": "district", "code": "341024", "name": "祁门县", "parentCode": "3410", "lng": 117.717, "lat": 29.854 },

  { "level": "district", "code": "341102", "name": "琅琊区", "parentCode": "3411", "lng": 118.310, "lat": 32.303 },
  { "level": "district", "code": "341103", "name": "南谯区", "parentCode": "3411", "lng": 118.302, "lat": 32.330 },
  { "level": "district", "code": "341122", "name": "来安县", "parentCode": "3411", "lng": 118.434, "lat": 32.453 },
  { "level": "district", "code": "341124", "name": "全椒县", "parentCode": "3411", "lng": 117.840, "lat": 32.086 },
  { "level": "district", "code": "341125", "name": "定远县", "parentCode": "3411", "lng": 117.680, "lat": 32.528 },
  { "level": "district", "code": "341126", "name": "凤阳县", "parentCode": "3411", "lng": 117.564, "lat": 32.865 },
  { "level": "district", "code": "341181", "name": "天长市", "parentCode": "3411", "lng": 119.008, "lat": 32.686 },
  { "level": "district", "code": "341182", "name": "明光市", "parentCode": "3411", "lng": 117.949, "lat": 32.779 },

  { "level": "district", "code": "341202", "name": "颍州区", "parentCode": "3412", "lng": 115.802, "lat": 32.884 },
  { "level": "district", "code": "341203", "name": "颍东区", "parentCode": "3412", "lng": 115.853, "lat": 32.912 },
  { "level": "district", "code": "341204", "name": "颍泉区", "parentCode": "3412", "lng": 115.789, "lat": 32.940 },
  { "level": "district", "code": "341221", "name": "临泉县", "parentCode": "3412", "lng": 115.669, "lat": 33.063 },
  { "level": "district", "code": "341222", "name": "太和县", "parentCode": "3412", "lng": 115.622, "lat": 33.161 },
  { "level": "district", "code": "341225", "name": "阜南县", "parentCode": "3412", "lng": 115.585, "lat": 32.633 },
  { "level": "district", "code": "341226", "name": "颍上县", "parentCode": "3412", "lng": 116.260, "lat": 32.548 },
  { "level": "district", "code": "341282", "name": "界首市", "parentCode": "3412", "lng": 115.374, "lat": 33.255 },

  { "level": "district", "code": "341302", "name": "埇桥区", "parentCode": "3413", "lng": 116.964, "lat": 33.654 },
  { "level": "district", "code": "341321", "name": "砀山县", "parentCode": "3413", "lng": 116.354, "lat": 34.427 },
  { "level": "district", "code": "341322", "name": "萧县", "parentCode": "3413", "lng": 116.945, "lat": 34.143 },
  { "level": "district", "code": "341323", "name": "灵璧县", "parentCode": "3413", "lng": 117.558, "lat": 33.546 },
  { "level": "district", "code": "341324", "name": "泗县", "parentCode": "3413", "lng": 117.885, "lat": 33.487 },

  { "level": "district", "code": "341502", "name": "金安区", "parentCode": "3415", "lng": 116.540, "lat": 31.755 },
  { "level": "district", "code": "341503", "name": "裕安区", "parentCode": "3415", "lng": 116.492, "lat": 31.756 },
  { "level": "district", "code": "341504", "name": "叶集区", "parentCode": "3415", "lng": 115.855, "lat": 31.843 },
  { "level": "district", "code": "341522", "name": "霍邱县", "parentCode": "3415", "lng": 116.278, "lat": 32.354 },
  { "level": "district", "code": "341523", "name": "舒城县", "parentCode": "3415", "lng": 116.949, "lat": 31.462 },
  { "level": "district", "code": "341524", "name": "金寨县", "parentCode": "3415", "lng": 115.934, "lat": 31.727 },
  { "level": "district", "code": "341525", "name": "霍山县", "parentCode": "3415", "lng": 116.333, "lat": 31.394 },

  { "level": "district", "code": "341602", "name": "谯城区", "parentCode": "3416", "lng": 115.783, "lat": 33.852 },
  { "level": "district", "code": "341621", "name": "涡阳县", "parentCode": "3416", "lng": 116.223, "lat": 33.498 },
  { "level": "district", "code": "341622", "name": "蒙城县", "parentCode": "3416", "lng": 116.564, "lat": 33.266 },
  { "level": "district", "code": "341623", "name": "利辛县", "parentCode": "3416", "lng": 116.209, "lat": 33.144 },

  { "level": "district", "code": "341702", "name": "贵池区", "parentCode": "3417", "lng": 117.491, "lat": 30.632 },
  { "level": "district", "code": "341721", "name": "东至县", "parentCode": "3417", "lng": 117.027, "lat": 30.096 },
  { "level": "district", "code": "341722", "name": "石台县", "parentCode": "3417", "lng": 117.486, "lat": 30.211 },
  { "level": "district", "code": "341723", "name": "青阳县", "parentCode": "3417", "lng": 117.847, "lat": 30.639 },

  { "level": "district", "code": "341802", "name": "宣州区", "parentCode": "3418", "lng": 118.758, "lat": 30.946 },
  { "level": "district", "code": "341821", "name": "郎溪县", "parentCode": "3418", "lng": 119.180, "lat": 31.131 },
  { "level": "district", "code": "341823", "name": "泾县", "parentCode": "3418", "lng": 118.419, "lat": 30.699 },
  { "level": "district", "code": "341824", "name": "绩溪县", "parentCode": "3418", "lng": 118.576, "lat": 30.071 },
  { "level": "district", "code": "341825", "name": "旌德县", "parentCode": "3418", "lng": 118.536, "lat": 30.296 },
  { "level": "district", "code": "341881", "name": "宁国市", "parentCode": "3418", "lng": 118.984, "lat": 30.634 }
]